[
  {
    "id": 1,
    "title": "Software Test Engineer IV",
    "city": "Chakwāl",
    "country": "Pakistan",
    "phone": "+92-942-964-0619",
    "longitude": 72.4228661,
    "latitude": 32.454801
  },
  {
    "id": 2,
    "title": "Budget/Accounting Analyst II",
    "city": "Khadan Khāk",
    "country": "Pakistan",
    "phone": "+92-522-246-1996",
    "longitude": 67.70846,
    "latitude": 30.74774
  },
  {
    "id": 3,
    "title": "Assistant Professor",
    "city": "Chishtiān Mandi",
    "country": "Pakistan",
    "phone": "+92-255-759-1579",
    "longitude": 73.0747872,
    "latitude": 29.9193861
  },
  {
    "id": 4,
    "title": "Marketing Manager",
    "city": "Sobhādero",
    "country": "Pakistan",
    "phone": "+92-123-795-0681",
    "longitude": 68.39764,
    "latitude": 27.30459
  },
  {
    "id": 5,
    "title": "Engineer IV",
    "city": "Kotli Lohārān",
    "country": "Pakistan",
    "phone": "+92-265-993-9068",
    "longitude": 74.5022234,
    "latitude": 32.5887159
  },
  {
    "id": 6,
    "title": "Staff Scientist",
    "city": "Faqīrwāli",
    "country": "Pakistan",
    "phone": "+92-539-500-9837",
    "longitude": 72.9842682,
    "latitude": 29.5300365
  },
  {
    "id": 7,
    "title": "Registered Nurse",
    "city": "Dhanot",
    "country": "Pakistan",
    "phone": "+92-332-349-4029",
    "longitude": 71.75213,
    "latitude": 29.57991
  },
  {
    "id": 8,
    "title": "Research Assistant II",
    "city": "Naushahro Fīroz",
    "country": "Pakistan",
    "phone": "+92-861-265-8082",
    "longitude": 68.1194872,
    "latitude": 26.8310493
  },
  {
    "id": 9,
    "title": "VP Marketing",
    "city": "Pākpattan",
    "country": "Pakistan",
    "phone": "+92-802-115-8542",
    "longitude": 73.1302301,
    "latitude": 30.3220554
  },
  {
    "id": 10,
    "title": "Human Resources Assistant III",
    "city": "Mīrpur Sakro",
    "country": "Pakistan",
    "phone": "+92-504-121-3682",
    "longitude": 67.6288048,
    "latitude": 24.5412145
  },
  {
    "id": 11,
    "title": "Analog Circuit Design manager",
    "city": "Tāndo Mittha Khān",
    "country": "Pakistan",
    "phone": "+92-586-961-8857",
    "longitude": 69.1193694,
    "latitude": 25.8626983
  },
  {
    "id": 12,
    "title": "Pharmacist",
    "city": "Pākpattan",
    "country": "Pakistan",
    "phone": "+92-899-989-1440",
    "longitude": 73.1302301,
    "latitude": 30.3220554
  },
  {
    "id": 13,
    "title": "VP Marketing",
    "city": "Basīrpur",
    "country": "Pakistan",
    "phone": "+92-991-792-9635",
    "longitude": 73.6658984,
    "latitude": 30.663128
  },
  {
    "id": 14,
    "title": "Dental Hygienist",
    "city": "Thul",
    "country": "Pakistan",
    "phone": "+92-808-664-0938",
    "longitude": 68.4722695,
    "latitude": 28.2645193
  },
  {
    "id": 15,
    "title": "Information Systems Manager",
    "city": "Quetta",
    "country": "Pakistan",
    "phone": "+92-319-621-3357",
    "longitude": 68.2132128,
    "latitude": 28.5553263
  },
  {
    "id": 16,
    "title": "Senior Developer",
    "city": "Malakwāl",
    "country": "Pakistan",
    "phone": "+92-995-585-0976",
    "longitude": 73.1990129,
    "latitude": 32.5443894
  },
  {
    "id": 17,
    "title": "Quality Control Specialist",
    "city": "Qila Abdullāh",
    "country": "Pakistan",
    "phone": "+92-839-481-3306",
    "longitude": 67.0720012,
    "latitude": 30.726207
  },
  {
    "id": 18,
    "title": "Account Coordinator",
    "city": "Bulri",
    "country": "Pakistan",
    "phone": "+92-331-169-0043",
    "longitude": 68.3001994,
    "latitude": 24.7932832
  },
  {
    "id": 19,
    "title": "Social Worker",
    "city": "Bhiria",
    "country": "Pakistan",
    "phone": "+92-636-333-3087",
    "longitude": 68.1863546,
    "latitude": 26.9105097
  },
  {
    "id": 20,
    "title": "Sales Representative",
    "city": "Basīrpur",
    "country": "Pakistan",
    "phone": "+92-809-729-1191",
    "longitude": 73.6658984,
    "latitude": 30.663128
  }
]
